{"stop_points":[{"stop_point":{"uic_code":87783365,"name":"S\u00e9v\u00e9rac-le-Ch\u00e2teau","coord":{"lat":"44.3246516","lon":"3.0569451"},"source":"sncf"}},{"stop_point":{"uic_code":87775288,"name":"Al\u00e8s","coord":{"lat":"44.127825","lon":"4.084948"},"source":"sncf"}},{"stop_point":{"uic_code":87763607,"name":"Brian\u00e7on","coord":{"lat":"44.889853","lon":"6.633007"},"source":"sncf"}},{"stop_point":{"uic_code":87747626,"name":"Clelles - Mens","coord":{"lat":"44.8272443","lon":"5.6050622"},"source":"sncf"}},{"stop_point":{"uic_code":87745000,"name":"Bellegarde","coord":{"lat":"46.109425","lon":"5.823483"},"source":"sncf"}},{"stop_point":{"uic_code":87732404,"name":"Gannat","coord":{"lat":"46.0975964","lon":"3.2047514"},"source":"sncf"}},{"stop_point":{"uic_code":87721332,"name":"Villefranche-sur-Sa\u00f4ne","coord":{"lat":"45.98450","lon":"4.72077"},"source":"sncf"}},{"stop_point":{"uic_code":87721225,"name":"Collonges - Fontaines","coord":{"lat":"45.8291102","lon":"4.8466136"},"source":"sncf"}},{"stop_point":{"uic_code":87718007,"name":"Besan\u00e7on Viotte","coord":{"lat":"47.247019","lon":"6.022003"},"source":"sncf"}},{"stop_point":{"uic_code":87673400,"name":"Biarritz","coord":{"lat":"43.459397","lon":"-1.545915"},"source":"sncf"}},{"stop_point":{"uic_code":87673004,"name":"Bayonne","coord":{"lat":"43.496801","lon":"-1.470306"},"source":"sncf"}},{"stop_point":{"uic_code":87611244,"name":"Montauban Ville Bourbon","coord":{"lat":"44.014387","lon":"1.341496"},"source":"sncf"}},{"stop_point":{"uic_code":87592485,"name":"Bellac","coord":{"lat":"46.1252044","lon":"1.0461168"},"source":"sncf"}},{"stop_point":{"uic_code":87571240,"name":"Saint-Pierre-des-Corps","coord":{"lat":"47.386099","lon":"0.723550"},"source":"sncf"}},{"stop_point":{"uic_code":87571000,"name":"Tours","coord":{"lat":"47.389781","lon":"0.693703"},"source":"sncf"}},{"stop_point":{"uic_code":87545137,"name":"\u00c9tampes","coord":{"lat":"48.436661","lon":"2.159468"},"source":"sncf"}},{"stop_point":{"uic_code":87485144,"name":"Rochefort","coord":{"lat":"45.947189","lon":"-0.963556"},"source":"sncf"}},{"stop_point":{"uic_code":87485003,"name":"La Rochelle","coord":{"lat":"46.15269","lon":"-1.145305"},"source":"sncf"}},{"stop_point":{"uic_code":87481283,"name":"Pornic","coord":{"lat":"47.1145616","lon":"-2.0975565"},"source":"sncf"}},{"stop_point":{"uic_code":87474155,"name":"Rosporden","coord":{"lat":"47.960273","lon":"-3.832763"},"source":"sncf"}},{"stop_point":{"uic_code":87473009,"name":"Saint-Brieuc","coord":{"lat":"48.507580","lon":"-2.765000"},"source":"sncf"}},{"stop_point":{"uic_code":87411017,"name":"Rouen Rive Droite","coord":{"lat":"49.448764","lon":"1.094087"},"source":"sncf"}},{"stop_point":{"uic_code":87382358,"name":"Saint-Cloud","coord":{"lat":"48.84541","lon":"2.21687"},"source":"sncf"}},{"stop_point":{"uic_code":87317586,"name":"Boulogne","coord":{"lat":"50.71570","lon":"1.60964"},"source":"sncf"}},{"stop_point":{"uic_code":87286732,"name":"Roubaix","coord":{"lat":"50.69561","lon":"3.16348"},"source":"sncf"}},{"stop_point":{"uic_code":87281873,"name":"Magenta","coord":{"lat":"48.87986","lon":"2.35835"},"source":"sncf"}},{"stop_point":{"uic_code":87281071,"name":"Calais - Fr\u00e9thun","coord":{"lat":"50.901221","lon":"1.810891"},"source":"sncf"}},{"stop_point":{"uic_code":87271395,"name":"Le Bourget","coord":{"lat":"48.93096","lon":"2.42571"},"source":"sncf"}},{"stop_point":{"uic_code":87182642,"name":"Kruth","coord":{"lat":"47.92396","lon":"6.9690938"},"source":"sncf"}},{"stop_point":{"uic_code":87182568,"name":"Thann","coord":{"lat":"47.8088208","lon":"7.1069795"},"source":"sncf"}},{"stop_point":{"uic_code":87141002,"name":"Nancy","coord":{"lat":"48.689861","lon":"6.174583"},"source":"sncf"}},{"stop_point":{"uic_code":87116079,"name":"Verneuil-l'\u00c9tang","coord":{"lat":"48.644689","lon":"2.825006"},"source":"sncf"}},{"stop_point":{"uic_code":87113712,"name":"Val de Fontenay","coord":{"lat":"48.854238","lon":"2.489097"},"source":"sncf"}},{"stop_point":{"uic_code":87781609,"name":"B\u00e9darieux","coord":{"lat":"43.6086972","lon":"3.1495688"},"source":"sncf"}},{"stop_point":{"uic_code":87755009,"name":"Toulon","coord":{"lat":"43.128370","lon":"5.929293"},"source":"sncf"}},{"stop_point":{"uic_code":87751420,"name":"Gardanne","coord":{"lat":"43.455992","lon":"5.463332"},"source":"sncf"}},{"stop_point":{"uic_code":87747535,"name":"Jarrie - Vizille","coord":{"lat":"45.0854543","lon":"5.7424487"},"source":"sncf"}},{"stop_point":{"uic_code":87746875,"name":"Vallorcine","coord":{"lat":"46.0324983","lon":"6.9326694"},"source":"sncf"}},{"stop_point":{"uic_code":87741009,"name":"Chamb\u00e9ry - Challes-les-Eaux","coord":{"lat":"45.571302","lon":"5.919547"},"source":"sncf"}},{"stop_point":{"uic_code":87734350,"name":"Langogne","coord":{"lat":"44.732776","lon":"3.8573047"},"source":"sncf"}},{"stop_point":{"uic_code":87734053,"name":"Riom - Ch\u00e2tel-Guyon","coord":{"lat":"45.889965","lon":"3.120498"},"source":"sncf"}},{"stop_point":{"uic_code":87723429,"name":"Bourgoin-Jallieu","coord":{"lat":"45.583954","lon":"5.273401"},"source":"sncf"}},{"stop_point":{"uic_code":87713040,"name":"Dijon","coord":{"lat":"47.323370","lon":"5.027208"},"source":"sncf"}},{"stop_point":{"uic_code":87677005,"name":"Hendaye","coord":{"lat":"43.353132","lon":"-1.781724"},"source":"sncf"}},{"stop_point":{"uic_code":87672279,"name":"Puyo\u00f4","coord":{"lat":"43.5245425","lon":"-0.9108149"},"source":"sncf"}},{"stop_point":{"uic_code":87645507,"name":"Neussargues","coord":{"lat":"45.1253044","lon":"2.9791866"},"source":"sncf"}},{"stop_point":{"uic_code":87611467,"name":"Colomiers","coord":{"lat":"43.603734","lon":"1.334221"},"source":"sncf"}},{"stop_point":{"uic_code":87597120,"name":"Argenton-sur-Creuse","coord":{"lat":"46.592248","lon":"1.518305"},"source":"sncf"}},{"stop_point":{"uic_code":87595512,"name":"Niversac","coord":{"lat":"45.1383083","lon":"0.8082195"},"source":"sncf"}},{"stop_point":{"uic_code":87594499,"name":"Tulle","coord":{"lat":"45.258725","lon":"1.756467"},"source":"sncf"}},{"stop_point":{"uic_code":87592121,"name":"Eymoutiers Vassivi\u00e8re","coord":{"lat":"45.7397876","lon":"1.7412237"},"source":"sncf"}},{"stop_point":{"uic_code":87583005,"name":"Angoul\u00eame","coord":{"lat":"45.653572","lon":"0.164608"},"source":"sncf"}},{"stop_point":{"uic_code":87581751,"name":"Pessac","coord":{"lat":"44.80461","lon":"-0.63185"},"source":"sncf"}},{"stop_point":{"uic_code":87575704,"name":"Mignaloux - Nouaill\u00e9","coord":{"lat":"46.5261427","lon":"0.4117391"},"source":"sncf"}},{"stop_point":{"uic_code":87543074,"name":"Toury","coord":{"lat":"48.193606","lon":"1.939565"},"source":"sncf"}},{"stop_point":{"uic_code":87485227,"name":"Surg\u00e8res","coord":{"lat":"46.113238","lon":"-0.762284"},"source":"sncf"}},{"stop_point":{"uic_code":87478404,"name":"Laval","coord":{"lat":"48.076206","lon":"-0.760907"},"source":"sncf"}},{"stop_point":{"uic_code":87448514,"name":"Avranches","coord":{"lat":"48.6902445","lon":"-1.3700755"},"source":"sncf"}},{"stop_point":{"uic_code":87447680,"name":"Granville","coord":{"lat":"48.838456","lon":"-1.587757"},"source":"sncf"}},{"stop_point":{"uic_code":87447219,"name":"Lison","coord":{"lat":"49.226834","lon":"-1.050339"},"source":"sncf"}},{"stop_point":{"uic_code":87444877,"name":"Cherbourg","coord":{"lat":"49.633505","lon":"-1.621515"},"source":"sncf"}},{"stop_point":{"uic_code":87444539,"name":"Argentan","coord":{"lat":"48.738545","lon":"-0.025291"},"source":"sncf"}},{"stop_point":{"uic_code":87444315,"name":"Serquigny","coord":{"lat":"49.1074117","lon":"0.7189895"},"source":"sncf"}},{"stop_point":{"uic_code":87413344,"name":"Br\u00e9aut\u00e9 - Beuzeville","coord":{"lat":"49.603396","lon":"0.417489"},"source":"sncf"}},{"stop_point":{"uic_code":87413013,"name":"Le Havre","coord":{"lat":"49.492996","lon":"0.125677"},"source":"sncf"}},{"stop_point":{"uic_code":87396002,"name":"Le Mans","coord":{"lat":"47.995689","lon":"0.192578"},"source":"sncf"}},{"stop_point":{"uic_code":87386573,"name":"Poissy","coord":{"lat":"48.9329014","lon":"2.0413676"},"source":"sncf"}},{"stop_point":{"uic_code":87300863,"name":"Besan\u00e7on Franche-Comt\u00e9 TGV","coord":{"lat":"47.307361058531725","lon":"5.953195095062256"},"source":"sncf"}},{"stop_point":{"uic_code":87286542,"name":"Tourcoing","coord":{"lat":"50.71683","lon":"3.16804"},"source":"sncf"}},{"stop_point":{"uic_code":87276691,"name":"Compi\u00e8gne","coord":{"lat":"49.422005","lon":"2.823679"},"source":"sncf"}},{"stop_point":{"uic_code":87276055,"name":"Ermont - Eaubonne","coord":{"lat":"48.9803322","lon":"2.2712294"},"source":"sncf"}},{"stop_point":{"uic_code":87171926,"name":"Champagne-Ardenne TGV","coord":{"lat":"49.214806","lon":"3.994632"},"source":"sncf"}},{"stop_point":{"uic_code":87118000,"name":"Troyes","coord":{"lat":"48.296069","lon":"4.065281"},"source":"sncf"}},{"stop_point":{"uic_code":87775007,"name":"N\u00eemes","coord":{"lat":"43.832291","lon":"4.365845"},"source":"sncf"}},{"stop_point":{"uic_code":87753004,"name":"Miramas","coord":{"lat":"43.580704","lon":"5.000264"},"source":"sncf"}},{"stop_point":{"uic_code":87747006,"name":"Grenoble","coord":{"lat":"45.191493","lon":"5.714584"},"source":"sncf"}},{"stop_point":{"uic_code":87734269,"name":"Brioude","coord":{"lat":"45.3006493","lon":"3.3786344"},"source":"sncf"}},{"stop_point":{"uic_code":87726802,"name":"Roanne","coord":{"lat":"46.039383","lon":"4.063207"},"source":"sncf"}},{"stop_point":{"uic_code":87725713,"name":"Cr\u00eaches-sur-Sa\u00f4ne","coord":{"lat":"46.2461762","lon":"4.7840233"},"source":"sncf"}},{"stop_point":{"uic_code":87721001,"name":"Lyon Vaise","coord":{"lat":"45.779938","lon":"4.803960"},"source":"sncf"}},{"stop_point":{"uic_code":87713578,"name":"Chagny","coord":{"lat":"46.907269","lon":"4.749682"},"source":"sncf"}},{"stop_point":{"uic_code":87713545,"name":"Beaune","coord":{"lat":"47.023053","lon":"4.848379"},"source":"sncf"}},{"stop_point":{"uic_code":87673103,"name":"Morcenx","coord":{"lat":"44.033565","lon":"-0.908640"},"source":"sncf"}},{"stop_point":{"uic_code":87611004,"name":"Toulouse Matabiau","coord":{"lat":"43.611206","lon":"1.453616"},"source":"sncf"}},{"stop_point":{"uic_code":87597005,"name":"Ch\u00e2teauroux","coord":{"lat":"46.809737","lon":"1.699536"},"source":"sncf"}},{"stop_point":{"uic_code":87592345,"name":"Saint-Sulpice-Lauri\u00e8re","coord":{"lat":"46.0469183","lon":"1.4762218"},"source":"sncf"}},{"stop_point":{"uic_code":87584516,"name":"Coutras","coord":{"lat":"45.036610","lon":"-0.13169"},"source":"sncf"}},{"stop_point":{"uic_code":87576876,"name":"Gi\u00e8vres","coord":{"lat":"47.2787925","lon":"1.6678267"},"source":"sncf"}},{"stop_point":{"uic_code":87576009,"name":"Vierzon","coord":{"lat":"47.226497","lon":"2.059822"},"source":"sncf"}},{"stop_point":{"uic_code":87575142,"name":"Ch\u00e2tellerault","coord":{"lat":"46.818594","lon":"0.549279"},"source":"sncf"}},{"stop_point":{"uic_code":87545194,"name":"Br\u00e9tigny","coord":{"lat":"48.606683","lon":"2.302378"},"source":"sncf"}},{"stop_point":{"uic_code":87543009,"name":"Orl\u00e9ans","coord":{"lat":"47.907960","lon":"1.904666"},"source":"sncf"}},{"stop_point":{"uic_code":87491001,"name":"Saintes","coord":{"lat":"45.74874","lon":"-0.61790"},"source":"sncf"}},{"stop_point":{"uic_code":87481705,"name":"Saint-Nazaire","coord":{"lat":"47.286412","lon":"-2.211096"},"source":"sncf"}},{"stop_point":{"uic_code":87481598,"name":"Nort-sur-Erdre","coord":{"lat":"47.4419243","lon":"-1.5033645"},"source":"sncf"}},{"stop_point":{"uic_code":87481036,"name":"Rez\u00e9 Pont Rousseau","coord":{"lat":"47.1932425","lon":"-1.5495445"},"source":"sncf"}},{"stop_point":{"uic_code":87478107,"name":"Saint-Malo","coord":{"lat":"48.646859","lon":"-2.004158"},"source":"sncf"}},{"stop_point":{"uic_code":87476671,"name":"Questembert","coord":{"lat":"47.6831803","lon":"-2.4496002"},"source":"sncf"}},{"stop_point":{"uic_code":87476002,"name":"Lorient","coord":{"lat":"47.755597","lon":"-3.366221"},"source":"sncf"}},{"stop_point":{"uic_code":87474338,"name":"Morlaix","coord":{"lat":"48.577970","lon":"-3.832514"},"source":"sncf"}},{"stop_point":{"uic_code":87447003,"name":"Saint-L\u00f4","coord":{"lat":"49.116975","lon":"-1.099525"},"source":"sncf"}},{"stop_point":{"uic_code":87444000,"name":"Caen","coord":{"lat":"49.176354","lon":"-0.347613"},"source":"sncf"}},{"stop_point":{"uic_code":87393314,"name":"Rambouillet","coord":{"lat":"48.64377","lon":"1.83154"},"source":"sncf"}},{"stop_point":{"uic_code":87382333,"name":"Chaville Rive Droite","coord":{"lat":"48.81213","lon":"2.18785"},"source":"sncf"}},{"stop_point":{"uic_code":87281006,"name":"Dunkerque","coord":{"lat":"51.030470","lon":"2.368961"},"source":"sncf"}},{"stop_point":{"uic_code":87276006,"name":"Creil","coord":{"lat":"49.2637570","lon":"2.4692439"},"source":"sncf"}},{"stop_point":{"uic_code":87271247,"name":"Saint-Ouen","coord":{"lat":"48.90531","lon":"2.32257"},"source":"sncf"}},{"stop_point":{"uic_code":87212142,"name":"Mommenheim","coord":{"lat":"48.7561587","lon":"7.6422273"},"source":"sncf"}},{"stop_point":{"uic_code":87171553,"name":"\u00c9pernay","coord":{"lat":"49.046289","lon":"3.959798"},"source":"sncf"}},{"stop_point":{"uic_code":87142406,"name":"Merrey","coord":{"lat":"48.0540899","lon":"5.5949561"},"source":"sncf"}},{"stop_point":{"uic_code":87141077,"name":"Frouard","coord":{"lat":"48.75545","lon":"6.14411"},"source":"sncf"}},{"stop_point":{"uic_code":87116012,"name":"Gretz-Armainvilliers","coord":{"lat":"48.745440","lon":"2.728824"},"source":"sncf"}},{"stop_point":{"uic_code":87783175,"name":"Saint-Flour - Chaudes-Aigues","coord":{"lat":"45.0350122","lon":"3.1062862"},"source":"sncf"}},{"stop_point":{"uic_code":87781005,"name":"B\u00e9ziers","coord":{"lat":"43.336330","lon":"3.218873"},"source":"sncf"}},{"stop_point":{"uic_code":87773002,"name":"Montpellier Saint-Roch","coord":{"lat":"43.604738","lon":"3.880674"},"source":"sncf"}},{"stop_point":{"uic_code":87763250,"name":"Aspres-sur-Bu\u00ebch","coord":{"lat":"44.519428","lon":"5.7545655"},"source":"sncf"}},{"stop_point":{"uic_code":87751370,"name":"Meyrargues","coord":{"lat":"43.6440076","lon":"5.5395738"},"source":"sncf"}},{"stop_point":{"uic_code":87751230,"name":"Ch\u00e2teau-Arnoux-Saint-Auban","coord":{"lat":"44.0615651","lon":"5.9973734"},"source":"sncf"}},{"stop_point":{"uic_code":87747329,"name":"Moirans","coord":{"lat":"45.322185","lon":"5.581915"},"source":"sncf"}},{"stop_point":{"uic_code":87745497,"name":"Annemasse","coord":{"lat":"46.199222","lon":"6.236520"},"source":"sncf"}},{"stop_point":{"uic_code":87743351,"name":"Nurieux","coord":{"lat":"46.1842195","lon":"5.5327486"},"source":"sncf"}},{"stop_point":{"uic_code":87743005,"name":"Bourg-en-Bresse","coord":{"lat":"46.200351","lon":"5.215063"},"source":"sncf"}},{"stop_point":{"uic_code":87742007,"name":"Modane","coord":{"lat":"45.193365","lon":"6.658161"},"source":"sncf"}},{"stop_point":{"uic_code":87734301,"name":"Saint-Georges-d'Aurac","coord":{"lat":"45.1605341","lon":"3.4947035"},"source":"sncf"}},{"stop_point":{"uic_code":87725689,"name":"M\u00e2con","coord":{"lat":"46.302572","lon":"4.824887"},"source":"sncf"}},{"stop_point":{"uic_code":87713859,"name":"Is-sur-Tille","coord":{"lat":"47.520454","lon":"5.129481"},"source":"sncf"}},{"stop_point":{"uic_code":87785006,"name":"Cerb\u00e8re","coord":{"lat":"42.4417732","lon":"3.1634033"},"source":"sncf"}},{"stop_point":{"uic_code":87682302,"name":"Montereau","coord":{"lat":"48.379934","lon":"2.942972"},"source":"sncf"}},{"stop_point":{"uic_code":87765503,"name":"Cavaillon","coord":{"lat":"43.834554","lon":"5.043613"},"source":"sncf"}},{"stop_point":{"uic_code":87765008,"name":"Avignon Centre","coord":{"lat":"43.941900","lon":"4.805281"},"source":"sncf"}},{"stop_point":{"uic_code":87763003,"name":"Gap","coord":{"lat":"44.563693","lon":"6.085638"},"source":"sncf"}},{"stop_point":{"uic_code":87761007,"name":"Valence","coord":{"lat":"44.928049","lon":"4.893273"},"source":"sncf"}},{"stop_point":{"uic_code":87613000,"name":"Cahors","coord":{"lat":"44.449275","lon":"1.433325"},"source":"sncf"}},{"stop_point":{"uic_code":87746305,"name":"La Roche-sur-Foron","coord":{"lat":"46.067560","lon":"6.303885"},"source":"sncf"}},{"stop_point":{"uic_code":87741181,"name":"Montm\u00e9lian","coord":{"lat":"45.503059","lon":"6.043289"},"source":"sncf"}},{"stop_point":{"uic_code":87734202,"name":"Issoire","coord":{"lat":"45.543884","lon":"3.253980"},"source":"sncf"}},{"stop_point":{"uic_code":87734186,"name":"Vic-le-Comte","coord":{"lat":"45.664911","lon":"3.207079"},"source":"sncf"}},{"stop_point":{"uic_code":87723197,"name":"Lyon Part Dieu","coord":{"lat":"45.760559","lon":"4.859355"},"source":"sncf"}},{"stop_point":{"uic_code":87547026,"name":"Paris Austerlitz","coord":{"lat":"48.842285","lon":"2.364891"},"source":"sncf"}},{"stop_point":{"uic_code":87686030,"name":"Paris Gare de Lyon","coord":{"lat":"48.844888","lon":"2.373520"},"source":"sncf"}},{"stop_point":{"uic_code":87486258,"name":"Lu\u00e7on","coord":{"lat":"46.4638232","lon":"-1.1674217"},"source":"sncf"}},{"stop_point":{"uic_code":87677120,"name":"Saint-Jean-de-Luz - Ciboure","coord":{"lat":"43.385838","lon":"-1.66122"},"source":"sncf"}},{"stop_point":{"uic_code":87672006,"name":"Pau","coord":{"lat":"43.291762","lon":"-0.369626"},"source":"sncf"}},{"stop_point":{"uic_code":87474239,"name":"Landerneau","coord":{"lat":"48.453572","lon":"-4.256528"},"source":"sncf"}},{"stop_point":{"uic_code":87473207,"name":"Guingamp","coord":{"lat":"48.555659","lon":"-3.143343"},"source":"sncf"}},{"stop_point":{"uic_code":87471300,"name":"Redon","coord":{"lat":"47.652004","lon":"-2.087770"},"source":"sncf"}},{"stop_point":{"uic_code":87611152,"name":"Montr\u00e9jeau - Gourdan-Polignan","coord":{"lat":"43.078109","lon":"0.573500"},"source":"sncf"}},{"stop_point":{"uic_code":87444562,"name":"Surdon","coord":{"lat":"48.6647685","lon":"0.1344097"},"source":"sncf"}},{"stop_point":{"uic_code":87444265,"name":"Lisieux","coord":{"lat":"49.138299","lon":"0.231143"},"source":"sncf"}},{"stop_point":{"uic_code":87415018,"name":"Dieppe","coord":{"lat":"49.921788","lon":"1.081133"},"source":"sncf"}},{"stop_point":{"uic_code":87594275,"name":"Meymac","coord":{"lat":"45.5302313","lon":"2.1640905"},"source":"sncf"}},{"stop_point":{"uic_code":87411264,"name":"Barentin","coord":{"lat":"49.549123","lon":"0.953517"},"source":"sncf"}},{"stop_point":{"uic_code":87396408,"name":"Sabl\u00e9-sur-Sarthe","coord":{"lat":"47.8415934","lon":"-0.3419359"},"source":"sncf"}},{"stop_point":{"uic_code":87394007,"name":"Chartres","coord":{"lat":"48.4482023","lon":"1.4813128"},"source":"sncf"}},{"stop_point":{"uic_code":87393421,"name":"Plaisir - Grignon","coord":{"lat":"48.8316509","lon":"1.9432973"},"source":"sncf"}},{"stop_point":{"uic_code":87393215,"name":"Viroflay Rive Gauche","coord":{"lat":"48.800517","lon":"2.1711466"},"source":"sncf"}},{"stop_point":{"uic_code":87391003,"name":"Paris Montparnasse","coord":{"lat":"48.841172","lon":"2.320514"},"source":"sncf"}},{"stop_point":{"uic_code":87386763,"name":"\u00c9p\u00f4ne - M\u00e9zi\u00e8res","coord":{"lat":"48.9631225","lon":"1.8085932"},"source":"sncf"}},{"stop_point":{"uic_code":87575076,"name":"Port-de-Piles","coord":{"lat":"47.0102599","lon":"0.5989179"},"source":"sncf"}},{"stop_point":{"uic_code":87381798,"name":"Val d'Argenteuil","coord":{"lat":"48.95042","lon":"2.23088"},"source":"sncf"}},{"stop_point":{"uic_code":87485300,"name":"Niort","coord":{"lat":"46.319491","lon":"-0.454639"},"source":"sncf"}},{"stop_point":{"uic_code":87481234,"name":"Saint-Hilaire-de-Chal\u00e9ons","coord":{"lat":"47.1057704","lon":"-1.8650604"},"source":"sncf"}},{"stop_point":{"uic_code":87476606,"name":"Vannes","coord":{"lat":"47.665169","lon":"-2.752450"},"source":"sncf"}},{"stop_point":{"uic_code":87471003,"name":"Rennes","coord":{"lat":"48.103517","lon":"-1.672744"},"source":"sncf"}},{"stop_point":{"uic_code":87415604,"name":"Vernon - Giverny","coord":{"lat":"49.091336","lon":"1.478570"},"source":"sncf"}},{"stop_point":{"uic_code":87212225,"name":"Saverne","coord":{"lat":"48.7444606","lon":"7.3620802"},"source":"sncf"}},{"stop_point":{"uic_code":87411280,"name":"Motteville","coord":{"lat":"49.6365717","lon":"0.8497988"},"source":"sncf"}},{"stop_point":{"uic_code":87394296,"name":"Nogent-le-Rotrou","coord":{"lat":"48.3255926","lon":"0.8103045"},"source":"sncf"}},{"stop_point":{"uic_code":87193615,"name":"Sarreguemines","coord":{"lat":"49.1073357","lon":"7.0686398"},"source":"sncf"}},{"stop_point":{"uic_code":87192039,"name":"Metz Ville","coord":{"lat":"49.109545","lon":"6.176593"},"source":"sncf"}},{"stop_point":{"uic_code":87393488,"name":"Dreux","coord":{"lat":"48.7314561","lon":"1.3701604"},"source":"sncf"}},{"stop_point":{"uic_code":87393223,"name":"Saint-Cyr","coord":{"lat":"48.7990666","lon":"2.0733739"},"source":"sncf"}},{"stop_point":{"uic_code":87393009,"name":"Versailles Chantiers","coord":{"lat":"48.7958264","lon":"2.1358827"},"source":"sncf"}},{"stop_point":{"uic_code":87182881,"name":"Thann Saint-Jacques","coord":{"lat":"47.8133155","lon":"7.0938473"},"source":"sncf"}},{"stop_point":{"uic_code":87174441,"name":"Saint-Hilaire-au-Temple","coord":{"lat":"49.05593","lon":"4.37967"},"source":"sncf"}},{"stop_point":{"uic_code":87142000,"name":"Chaumont","coord":{"lat":"48.10976","lon":"5.13460"},"source":"sncf"}},{"stop_point":{"uic_code":87313874,"name":"Amiens","coord":{"lat":"49.890746","lon":"2.312592"},"source":"sncf"}},{"stop_point":{"uic_code":87271411,"name":"Aulnay-sous-Bois","coord":{"lat":"48.93179","lon":"2.49431"},"source":"sncf"}},{"stop_point":{"uic_code":87215079,"name":"R\u00e9ding","coord":{"lat":"48.7429595","lon":"7.095885"},"source":"sncf"}},{"stop_point":{"uic_code":87534347,"name":"Lutterbach","coord":{"lat":"47.7582136","lon":"7.276994"},"source":"sncf"}},{"stop_point":{"uic_code":87141150,"name":"Lun\u00e9ville","coord":{"lat":"48.588233","lon":"6.497270"},"source":"sncf"}},{"stop_point":{"uic_code":87113407,"name":"Bondy","coord":{"lat":"48.894208","lon":"2.478600"},"source":"sncf"}},{"stop_point":{"uic_code":8821543,"name":"Sint Mariaburg","coord":{"lat":"51.292714","lon":"4.434961"},"source":"sncb"}},{"stop_point":{"uic_code":0,"name":"AACHEN HBF","coord":{"lat":"50.7803668416347","lon":"6.07071876525879"},"source":"sncb"}},{"stop_point":{"uic_code":8842002,"name":"Angleur","coord":{"lat":"50.61253","lon":"5.600949"},"source":"sncb"}},{"stop_point":{"uic_code":8864501,"name":"Ciney","coord":{"lat":"50.292022","lon":"5.090581"},"source":"sncb"}},{"stop_point":{"uic_code":8865003,"name":"Libramont","coord":{"lat":"49.920425","lon":"5.379272"},"source":"sncb"}},{"stop_point":{"uic_code":8821402,"name":"Essen","coord":{"lat":"51.462736","lon":"4.451106"},"source":"sncb"}},{"stop_point":{"uic_code":8841004,"name":"Liege Guillemins","coord":{"lat":"50.622935","lon":"5.568461"},"source":"sncb"}},{"stop_point":{"uic_code":0,"name":"KOLN HBF","coord":{"lat":"50.9437056349119","lon":"6.95812225341797"},"source":"sncb"}},{"stop_point":{"uic_code":8866001,"name":"Arlon","coord":{"lat":"49.679975","lon":"5.810614"},"source":"sncb"}},{"stop_point":{"uic_code":3,"name":"AIX EN PROVENCE","coord":{"lat":"43.4536587954535","lon":"5.31669080257416"},"source":"sncb"}},{"stop_point":{"uic_code":10,"name":"NICE","coord":{"lat":"43.7044834223413","lon":"7.26198434829712"},"source":"sncb"}},{"stop_point":{"uic_code":13,"name":"PERPIGNAN","coord":{"lat":"42.6962992118387","lon":"2.87992000579834"},"source":"sncb"}},{"stop_point":{"uic_code":14,"name":"SETE","coord":{"lat":"43.4127948755782","lon":"3.69621276855469"},"source":"sncb"}},{"stop_point":{"uic_code":8844008,"name":"Verviers Central","coord":{"lat":"50.587821","lon":"5.854597"},"source":"sncb"}},{"stop_point":{"uic_code":8845005,"name":"Gouvy","coord":{"lat":"50.189414","lon":"5.953908"},"source":"sncb"}},{"stop_point":{"uic_code":8811221,"name":"Zaventem","coord":{"lat":"50.88572","lon":"4.469886"},"source":"sncb"}},{"stop_point":{"uic_code":15,"name":"STRASBOURG","coord":{"lat":"48.5848973736386","lon":"7.73454666137695"},"source":"sncb"}},{"stop_point":{"uic_code":8885704,"name":"Mouscron","coord":{"lat":"50.738372","lon":"3.225307"},"source":"sncb"}},{"stop_point":{"uic_code":8822210,"name":"Duffel","coord":{"lat":"51.091633","lon":"4.492194"},"source":"sncb"}},{"stop_point":{"uic_code":105,"name":"Antwerpen-Luchtbal","coord":{"lat":"51.244722","lon":"4.425"},"source":"sncb"}},{"stop_point":{"uic_code":8866258,"name":"Neufchateau","coord":{"lat":"49.853819","lon":"5.452592"},"source":"sncb"}},{"stop_point":{"uic_code":8822251,"name":"Weerde","coord":{"lat":"50.977411","lon":"4.470292"},"source":"sncb"}},{"stop_point":{"uic_code":8833001,"name":"Leuven","coord":{"lat":"50.881356","lon":"4.716096"},"source":"sncb"}},{"stop_point":{"uic_code":8844206,"name":"Pepinster","coord":{"lat":"50.568814","lon":"5.808247"},"source":"sncb"}},{"stop_point":{"uic_code":0,"name":"LUXEMBOURG","coord":{"lat":"49.6000512882886","lon":"6.133793592453"},"source":"sncb"}},{"stop_point":{"uic_code":8821337,"name":"Hove","coord":{"lat":"51.154114","lon":"4.465469"},"source":"sncb"}},{"stop_point":{"uic_code":8844503,"name":"Welkenraedt","coord":{"lat":"50.659464","lon":"5.974261"},"source":"sncb"}},{"stop_point":{"uic_code":0,"name":"Fulda","coord":{"lat":"50.55481862","lon":"9.68418678"},"source":"de"}},{"stop_point":{"uic_code":0,"name":"Hattingen (Ruhr)","coord":{"lat":"51.40068133","lon":"7.17129761"},"source":"de"}},{"stop_point":{"uic_code":0,"name":"Troisdorf","coord":{"lat":"50.81356666","lon":"7.15045311"},"source":"de"}},{"stop_point":{"uic_code":0,"name":"Horrem","coord":{"lat":"50.91633184","lon":"6.71332294"},"source":"de"}},{"stop_point":{"uic_code":0,"name":"Langerwehe","coord":{"lat":"50.81763233","lon":"6.35469593"},"source":"de"}},{"stop_point":{"uic_code":0,"name":"Eschweiler Hbf","coord":{"lat":"50.81353807","lon":"6.25193087"},"source":"de"}},{"stop_point":{"uic_code":0,"name":"Stolberg (Rheinl) Hbf","coord":{"lat":"50.79489322","lon":"6.21824203"},"source":"de"}},{"stop_point":{"uic_code":0,"name":"Bonn Hbf","coord":{"lat":"50.73202469","lon":"7.09667277"},"source":"de"}},{"stop_point":{"uic_code":0,"name":"Bonn-Mehlem","coord":{"lat":"50.66902058","lon":"7.18145242"},"source":"de"}},{"stop_point":{"uic_code":0,"name":"Remagen","coord":{"lat":"50.57722975","lon":"7.22974364"},"source":"de"}},{"stop_point":{"uic_code":0,"name":"Andernach","coord":{"lat":"50.43468206","lon":"7.40436485"},"source":"de"}},{"stop_point":{"uic_code":0,"name":"Koblenz Hbf","coord":{"lat":"50.35077018","lon":"7.58856711"},"source":"de"}},{"stop_point":{"uic_code":0,"name":"Boppard Hbf","coord":{"lat":"50.23144039","lon":"7.58602553"},"source":"de"}},{"stop_point":{"uic_code":0,"name":"Siegburg\/Bonn","coord":{"lat":"50.79415707","lon":"7.20261177"},"source":"de"}},{"stop_point":{"uic_code":0,"name":"Montabaur (Fernbahn)","coord":{"lat":"50.44471375","lon":"7.82521873"},"source":"de"}},{"stop_point":{"uic_code":0,"name":"Wiesbaden Hbf","coord":{"lat":"50.07044147","lon":"8.24351547"},"source":"de"}},{"stop_point":{"uic_code":0,"name":"Wiesbaden Ost","coord":{"lat":"50.04140729","lon":"8.25623547"},"source":"de"}},{"stop_point":{"uic_code":0,"name":"Mainz Hbf","coord":{"lat":"50.00126849","lon":"8.25852122"},"source":"de"}},{"stop_point":{"uic_code":0,"name":"Mannheim Hbf","coord":{"lat":"49.47943356","lon":"8.46957097"},"source":"de"}},{"stop_point":{"uic_code":0,"name":"Aschaffenburg Hbf","coord":{"lat":"49.98052114","lon":"9.14382555"},"source":"de"}},{"stop_point":{"uic_code":0,"name":"Biblis","coord":{"lat":"49.68887983","lon":"8.45031677"},"source":"de"}},{"stop_point":{"uic_code":0,"name":"Gelnhausen","coord":{"lat":"50.196402","lon":"9.18952181"},"source":"de"}},{"stop_point":{"uic_code":0,"name":"Flieden","coord":{"lat":"50.42133534","lon":"9.57643846"},"source":"de"}},{"stop_point":{"uic_code":0,"name":"Bad Hersfeld","coord":{"lat":"50.86989367","lon":"9.71666725"},"source":"de"}},{"stop_point":{"uic_code":0,"name":"Bebra","coord":{"lat":"50.96916926","lon":"9.79761468"},"source":"de"}},{"stop_point":{"uic_code":0,"name":"Heidelberg Hbf","coord":{"lat":"49.40346001","lon":"8.67536399"},"source":"de"}},{"stop_point":{"uic_code":0,"name":"Karlsruhe Hbf","coord":{"lat":"48.99351222","lon":"8.4019497"},"source":"de"}},{"stop_point":{"uic_code":0,"name":"Baden-Baden","coord":{"lat":"48.79032983","lon":"8.19088244"},"source":"de"}},{"stop_point":{"uic_code":0,"name":"Achern","coord":{"lat":"48.63397724","lon":"8.06526342"},"source":"de"}},{"stop_point":{"uic_code":0,"name":"Offenburg","coord":{"lat":"48.47648796","lon":"7.94675289"},"source":"de"}},{"stop_point":{"uic_code":0,"name":"Lahr (Schwarzw)","coord":{"lat":"48.34055233","lon":"7.83528476"},"source":"de"}},{"stop_point":{"uic_code":0,"name":"Basel Bad Bf","coord":{"lat":"47.56776376","lon":"7.60818727"},"source":"de"}},{"stop_point":{"uic_code":0,"name":"Singen (Hohentwiel)","coord":{"lat":"47.75880447","lon":"8.84117893"},"source":"de"}},{"stop_point":{"uic_code":0,"name":"Radolfzell","coord":{"lat":"47.73576875","lon":"8.96866618"},"source":"de"}},{"stop_point":{"uic_code":0,"name":"Konstanz","coord":{"lat":"47.65874766","lon":"9.17729064"},"source":"de"}},{"stop_point":{"uic_code":0,"name":"Mannheim-Waldhof","coord":{"lat":"49.52561581","lon":"8.48281045"},"source":"de"}},{"stop_point":{"uic_code":0,"name":"Riedstadt-Goddelau","coord":{"lat":"49.83397646","lon":"8.48974033"},"source":"de"}},{"stop_point":{"uic_code":0,"name":"Zeppelinheim","coord":{"lat":"50.03666137","lon":"8.60522063"},"source":"de"}},{"stop_point":{"uic_code":0,"name":"Mannheim-Neckarstadt","coord":{"lat":"49.50419307","lon":"8.46018478"},"source":"de"}},{"stop_point":{"uic_code":0,"name":"Biberach (Baden)","coord":{"lat":"48.33840243","lon":"8.03283208"},"source":"de"}},{"stop_point":{"uic_code":0,"name":"Hausach","coord":{"lat":"48.2848715","lon":"8.18158971"},"source":"de"}},{"stop_point":{"uic_code":0,"name":"Villingen (Schwarzw)","coord":{"lat":"48.05782507","lon":"8.46549009"},"source":"de"}},{"stop_point":{"uic_code":0,"name":"Donaueschingen","coord":{"lat":"47.94797273","lon":"8.49894167"},"source":"de"}},{"stop_point":{"uic_code":0,"name":"Immendingen","coord":{"lat":"47.93612034","lon":"8.72950059"},"source":"de"}},{"stop_point":{"uic_code":0,"name":"Engen","coord":{"lat":"47.85633658","lon":"8.77278916"},"source":"de"}},{"stop_point":{"uic_code":0,"name":"Kehl","coord":{"lat":"48.57666766","lon":"7.80634663"},"source":"de"}},{"stop_point":{"uic_code":0,"name":"Ulm Hbf","coord":{"lat":"48.3994043","lon":"9.98259294"},"source":"de"}},{"stop_point":{"uic_code":0,"name":"Plochingen","coord":{"lat":"48.71279979","lon":"9.41098187"},"source":"de"}},{"stop_point":{"uic_code":0,"name":"Stuttgart Hbf","coord":{"lat":"48.78458839","lon":"9.18368323"},"source":"de"}},{"stop_point":{"uic_code":0,"name":"Stuttgart-Bad Cannstatt","coord":{"lat":"48.80121531","lon":"9.21745731"},"source":"de"}},{"stop_point":{"uic_code":0,"name":"Esslingen (Neckar)","coord":{"lat":"48.73880851","lon":"9.3000555"},"source":"de"}},{"stop_point":{"uic_code":0,"name":"Geislingen (Steige)","coord":{"lat":"48.61956957","lon":"9.84175573"},"source":"de"}},{"stop_point":{"uic_code":0,"name":"Neu-Ulm","coord":{"lat":"48.39337117","lon":"10.00579221"},"source":"de"}},{"stop_point":{"uic_code":0,"name":"Stuttgart Neckarpark","coord":{"lat":"48.79198995","lon":"9.24095393"},"source":"de"}},{"stop_point":{"uic_code":0,"name":"Stuttgart-Rohr","coord":{"lat":"48.71791142","lon":"9.10838097"},"source":"de"}},{"stop_point":{"uic_code":0,"name":"Herrenberg","coord":{"lat":"48.59412973","lon":"8.86285438"},"source":"de"}},{"stop_point":{"uic_code":0,"name":"Echterdingen","coord":{"lat":"48.69209699","lon":"9.16924339"},"source":"de"}},{"stop_point":{"uic_code":0,"name":"Filderstadt","coord":{"lat":"48.67648321","lon":"9.2177456"},"source":"de"}},{"stop_point":{"uic_code":0,"name":"Langenprozelten","coord":{"lat":"50.06154711","lon":"9.66138969"},"source":"de"}},{"stop_point":{"uic_code":0,"name":"Laufach","coord":{"lat":"50.01066312","lon":"9.27765839"},"source":"de"}},{"stop_point":{"uic_code":0,"name":"Augsburg Hbf","coord":{"lat":"48.36527638","lon":"10.88567244"},"source":"de"}},{"stop_point":{"uic_code":0,"name":"Augsburg-Oberhausen","coord":{"lat":"48.38076697","lon":"10.87252123"},"source":"de"}},{"stop_point":{"uic_code":0,"name":"Gessertshausen","coord":{"lat":"48.33378564","lon":"10.7326522"},"source":"de"}},{"stop_point":{"uic_code":0,"name":"Mering","coord":{"lat":"48.26291721","lon":"10.98768069"},"source":"de"}},{"stop_point":{"uic_code":0,"name":"Augsburg-Hochzoll","coord":{"lat":"48.35303645","lon":"10.94532041"},"source":"de"}},{"stop_point":{"uic_code":0,"name":"Olching","coord":{"lat":"48.21040298","lon":"11.33427094"},"source":"de"}},{"stop_point":{"uic_code":0,"name":"Rosenheim","coord":{"lat":"47.85010878","lon":"12.11934276"},"source":"de"}},{"stop_point":{"uic_code":0,"name":"Mammendorf","coord":{"lat":"48.21687735","lon":"11.1739278"},"source":"de"}},{"stop_point":{"uic_code":0,"name":"Ismaning","coord":{"lat":"48.22604352","lon":"11.67941363"},"source":"de"}},{"stop_point":{"uic_code":0,"name":"Erfurt Hbf","coord":{"lat":"50.97249309","lon":"11.03798928"},"source":"de"}},{"stop_point":{"uic_code":0,"name":"Berlin Ostkreuz (S-Bahn)","coord":{"lat":"52.50352782","lon":"13.46818629"},"source":"de"}},{"stop_point":{"uic_code":0,"name":"Berlin-Wedding (S-Bahn)","coord":{"lat":"52.54332388","lon":"13.36817739"},"source":"de"}},{"stop_point":{"uic_code":0,"name":"Berlin Westkreuz (Ringbahn)","coord":{"lat":"52.50080217","lon":"13.28398815"},"source":"de"}},{"stop_point":{"uic_code":0,"name":"Berlin Jungfernheide (S-Bahn)","coord":{"lat":"52.53042959","lon":"13.29937878"},"source":"de"}},{"stop_point":{"uic_code":0,"name":"Berlin Potsdamer Platz (S-Bahn)","coord":{"lat":"52.51000328","lon":"13.37639462"},"source":"de"}},{"stop_point":{"uic_code":0,"name":"Berlin Anhalter Bf","coord":{"lat":"52.50352288","lon":"13.38136014"},"source":"de"}},{"stop_point":{"uic_code":0,"name":"Berlin Priesterweg","coord":{"lat":"52.4608083","lon":"13.35652932"},"source":"de"}},{"stop_point":{"uic_code":0,"name":"Berlin-Lichterfelde Ost (S-Bahn)","coord":{"lat":"52.42932173","lon":"13.32739923"},"source":"de"}},{"stop_point":{"uic_code":0,"name":"Halle (Saale) Hbf","coord":{"lat":"51.47693122","lon":"11.98647181"},"source":"de"}},{"stop_point":{"uic_code":0,"name":"Priort","coord":{"lat":"52.51705615","lon":"12.97146415"},"source":"de"}},{"stop_point":{"uic_code":0,"name":"Berlin-Gesundbrunnen","coord":{"lat":"52.54883228","lon":"13.39095863"},"source":"de"}},{"stop_point":{"uic_code":0,"name":"Berlin-Spandau","coord":{"lat":"52.53437769","lon":"13.19839638"},"source":"de"}},{"stop_point":{"uic_code":0,"name":"Elstal","coord":{"lat":"52.54757532","lon":"13.00100968"},"source":"de"}},{"stop_point":{"uic_code":0,"name":"Berlin Ostbahnhof","coord":{"lat":"52.51060746","lon":"13.43502728"},"source":"de"}},{"stop_point":{"uic_code":0,"name":"Berlin Alexanderplatz","coord":{"lat":"52.52155387","lon":"13.4110407"},"source":"de"}},{"stop_point":{"uic_code":0,"name":"Berlin Zoologischer Garten","coord":{"lat":"52.50726273","lon":"13.33237162"},"source":"de"}},{"stop_point":{"uic_code":0,"name":"Berlin-Charlottenburg","coord":{"lat":"52.50422272","lon":"13.30202251"},"source":"de"}},{"stop_point":{"uic_code":0,"name":"Potsdam Pirschheide","coord":{"lat":"52.37238411","lon":"13.01108513"},"source":"de"}},{"stop_point":{"uic_code":0,"name":"Saarmund","coord":{"lat":"52.323688","lon":"13.13887421"},"source":"de"}},{"stop_point":{"uic_code":0,"name":"Ludwigsfelde-Struveshof","coord":{"lat":"52.31720599","lon":"13.2320919"},"source":"de"}},{"stop_point":{"uic_code":0,"name":"Teltow","coord":{"lat":"52.38852719","lon":"13.29979791"},"source":"de"}},{"stop_point":{"uic_code":0,"name":"Ludwigsfelde","coord":{"lat":"52.2992334","lon":"13.26756035"},"source":"de"}},{"stop_point":{"uic_code":0,"name":"Lutherstadt Wittenberg Hbf","coord":{"lat":"51.86773846","lon":"12.66162878"},"source":"de"}},{"stop_point":{"uic_code":0,"name":"Pratau","coord":{"lat":"51.84279077","lon":"12.63479167"},"source":"de"}},{"stop_point":{"uic_code":0,"name":"Bitterfeld","coord":{"lat":"51.62291688","lon":"12.31692007"},"source":"de"}},{"stop_point":{"uic_code":0,"name":"Berlin-Karlshorst","coord":{"lat":"52.47960219","lon":"13.52897818"},"source":"de"}},{"stop_point":{"uic_code":0,"name":"Berlin-Staaken","coord":{"lat":"52.53956878","lon":"13.11462146"},"source":"de"}},{"stop_point":{"uic_code":0,"name":"Neudietendorf","coord":{"lat":"50.91426238","lon":"10.9103093"},"source":"de"}},{"stop_point":{"uic_code":0,"name":"Weimar","coord":{"lat":"50.99170008","lon":"11.32661898"},"source":"de"}},{"stop_point":{"uic_code":0,"name":"Eisenach","coord":{"lat":"50.97677762","lon":"10.33198684"},"source":"de"}},{"stop_point":{"uic_code":0,"name":"Halle-Ammendorf","coord":{"lat":"51.4256354","lon":"11.98778004"},"source":"de"}},{"stop_point":{"uic_code":0,"name":"Naumburg (Saale) Hbf","coord":{"lat":"51.16292934","lon":"11.79673641"},"source":"de"}},{"stop_point":{"uic_code":0,"name":"Seebergen","coord":{"lat":"50.92912981","lon":"10.79341674"},"source":"de"}},{"stop_point":{"uic_code":0,"name":"Gotha","coord":{"lat":"50.93910064","lon":"10.71274767"},"source":"de"}},{"stop_point":{"uic_code":0,"name":"Wutha","coord":{"lat":"50.95718865","lon":"10.3964045"},"source":"de"}},{"stop_point":{"uic_code":0,"name":"Eisenach West","coord":{"lat":"50.97886516","lon":"10.30424867"},"source":"de"}},{"stop_point":{"uic_code":0,"name":"Gerstungen","coord":{"lat":"50.96457948","lon":"10.06508531"},"source":"de"}},{"stop_point":{"uic_code":0,"name":"Ronshausen","coord":{"lat":"50.94575183","lon":"9.85541581"},"source":"de"}},{"stop_point":{"uic_code":0,"name":"Leipzig Nord","coord":{"lat":"51.36563157","lon":"12.40137765"},"source":"de"}},{"stop_point":{"uic_code":0,"name":"Leipzig Hbf","coord":{"lat":"51.34415179","lon":"12.38196786"},"source":"de"}},{"stop_point":{"uic_code":0,"name":"Leipzig-Gohlis","coord":{"lat":"51.36288033","lon":"12.37452296"},"source":"de"}},{"stop_point":{"uic_code":0,"name":"Leipzig-Leutzsch","coord":{"lat":"51.3540412","lon":"12.30424051"},"source":"de"}},{"stop_point":{"uic_code":0,"name":"Leipzig-Wahren","coord":{"lat":"51.38071947","lon":"12.32128093"},"source":"de"}},{"stop_point":{"uic_code":0,"name":"Leipzig Messe","coord":{"lat":"51.39624017","lon":"12.38964914"},"source":"de"}},{"stop_point":{"uic_code":0,"name":"Zschortau","coord":{"lat":"51.4833025","lon":"12.361465"},"source":"de"}},{"stop_point":{"uic_code":0,"name":"Calais","coord":{"lat":"50.901549","lon":"1.811446"},"source":"ch"}},{"stop_point":{"uic_code":0,"name":"Marne-la-Vall\u00e9e-Chessy","coord":{"lat":"48.870272","lon":"2.782876"},"source":"ch"}},{"stop_point":{"uic_code":0,"name":"Fribourg","coord":{"lat":"46.803268","lon":"7.151023"},"source":"ch"}},{"stop_point":{"uic_code":0,"name":"G\u00fcnzburg","coord":{"lat":"48.460335","lon":"10.278656"},"source":"ch"}},{"stop_point":{"uic_code":0,"name":"Forbach(Schwarzw)","coord":{"lat":"48.680399","lon":"8.361491"},"source":"ch"}},{"stop_point":{"uic_code":0,"name":"M\u00fcllheim (Baden)","coord":{"lat":"47.809743","lon":"7.599332"},"source":"ch"}},{"stop_point":{"uic_code":0,"name":"M\u00fcnchen Pasing","coord":{"lat":"48.149852","lon":"11.461872"},"source":"ch"}},{"stop_point":{"uic_code":0,"name":"M\u00fcnchen Hbf","coord":{"lat":"48.140232","lon":"11.558335"},"source":"ch"}},{"stop_point":{"uic_code":0,"name":"W\u00fcrzburg Hbf","coord":{"lat":"49.801796","lon":"9.93578"},"source":"ch"}},{"stop_point":{"uic_code":0,"name":"Saarbr\u00fccken Hbf","coord":{"lat":"49.241065","lon":"6.991021"},"source":"ch"}},{"stop_point":{"uic_code":0,"name":"Stuttgart-\u00d6sterfeld","coord":{"lat":"48.737651","lon":"9.116774"},"source":"ch"}},{"stop_point":{"uic_code":0,"name":"G\u00f6ppingen","coord":{"lat":"48.700027","lon":"9.651969"},"source":"ch"}},{"stop_point":{"uic_code":0,"name":"B\u00f6blingen","coord":{"lat":"48.687758","lon":"9.004128"},"source":"ch"}},{"stop_point":{"uic_code":0,"name":"Landeck-Zams","coord":{"lat":"47.148243","lon":"10.578392"},"source":"ch"}},{"stop_point":{"uic_code":0,"name":"Feldkirch","coord":{"lat":"47.240978","lon":"9.604102"},"source":"ch"}},{"stop_point":{"uic_code":0,"name":"Schaan-Vaduz","coord":{"lat":"47.168293","lon":"9.5078"},"source":"ch"}},{"stop_point":{"uic_code":0,"name":"Milano Porta Garibaldi","coord":{"lat":"45.484437","lon":"9.187297"},"source":"ch"}},{"stop_point":{"uic_code":0,"name":"Milano Centrale","coord":{"lat":"45.486385","lon":"9.204714"},"source":"ch"}},{"stop_point":{"uic_code":0,"name":"Milano Lambrate","coord":{"lat":"45.485071","lon":"9.237222"},"source":"ch"}},{"stop_point":{"uic_code":0,"name":"Olten","coord":{"lat":"47.35193","lon":"7.907688"},"source":"ch"}},{"stop_point":{"uic_code":0,"name":"La Plaine","coord":{"lat":"46.17866","lon":"5.999996"},"source":"ch"}},{"stop_point":{"uic_code":0,"name":"Coppet","coord":{"lat":"46.317381","lon":"6.187832"},"source":"ch"}},{"stop_point":{"uic_code":0,"name":"Nyon","coord":{"lat":"46.384407","lon":"6.235974"},"source":"ch"}},{"stop_point":{"uic_code":0,"name":"Morges","coord":{"lat":"46.511092","lon":"6.493964"},"source":"ch"}},{"stop_point":{"uic_code":0,"name":"Evian-les-Bains (F) (lac)","coord":{"lat":"46.401594","lon":"6.59478"},"source":"ch"}},{"stop_point":{"uic_code":0,"name":"Vallorbe","coord":{"lat":"46.712398","lon":"6.370564"},"source":"ch"}},{"stop_point":{"uic_code":0,"name":"Lausanne","coord":{"lat":"46.516779","lon":"6.629093"},"source":"ch"}},{"stop_point":{"uic_code":0,"name":"Gen\u00e8ve-Eaux-Vives (lac)","coord":{"lat":"46.209169","lon":"6.162226"},"source":"ch"}},{"stop_point":{"uic_code":0,"name":"Othmarsingen","coord":{"lat":"47.407427","lon":"8.214788"},"source":"ch"}},{"stop_point":{"uic_code":0,"name":"Aarau","coord":{"lat":"47.391356","lon":"8.051253"},"source":"ch"}},{"stop_point":{"uic_code":0,"name":"Rupperswil","coord":{"lat":"47.403288","lon":"8.126944"},"source":"ch"}},{"stop_point":{"uic_code":0,"name":"Lenzburg","coord":{"lat":"47.391194","lon":"8.170378"},"source":"ch"}},{"stop_point":{"uic_code":0,"name":"Z\u00fcrich HB","coord":{"lat":"47.378177","lon":"8.540192"},"source":"ch"}},{"stop_point":{"uic_code":0,"name":"Z\u00fcrich Wiedikon","coord":{"lat":"47.371472","lon":"8.523462"},"source":"ch"}},{"stop_point":{"uic_code":0,"name":"Thalwil","coord":{"lat":"47.295975","lon":"8.564755"},"source":"ch"}},{"stop_point":{"uic_code":0,"name":"W\u00e4denswil","coord":{"lat":"47.229302","lon":"8.675192"},"source":"ch"}},{"stop_point":{"uic_code":0,"name":"Pf\u00e4ffikon SZ","coord":{"lat":"47.202998","lon":"8.77811"},"source":"ch"}},{"stop_point":{"uic_code":0,"name":"Siebnen-Wangen","coord":{"lat":"47.182668","lon":"8.900698"},"source":"ch"}},{"stop_point":{"uic_code":0,"name":"Ziegelbr\u00fccke","coord":{"lat":"47.136152","lon":"9.060037"},"source":"ch"}},{"stop_point":{"uic_code":0,"name":"Killwangen-Spreitenbach","coord":{"lat":"47.433329","lon":"8.354194"},"source":"ch"}},{"stop_point":{"uic_code":0,"name":"Pal\u00e9zieux","coord":{"lat":"46.542753","lon":"6.837877"},"source":"ch"}},{"stop_point":{"uic_code":0,"name":"Romont","coord":{"lat":"46.693502","lon":"6.911814"},"source":"ch"}},{"stop_point":{"uic_code":0,"name":"Bern","coord":{"lat":"46.948825","lon":"7.439118"},"source":"ch"}},{"stop_point":{"uic_code":0,"name":"Chur","coord":{"lat":"46.85308","lon":"9.528925"},"source":"ch"}},{"stop_point":{"uic_code":0,"name":"Landquart","coord":{"lat":"46.967439","lon":"9.554028"},"source":"ch"}},{"stop_point":{"uic_code":0,"name":"Sargans","coord":{"lat":"47.045364","lon":"9.445395"},"source":"ch"}},{"stop_point":{"uic_code":0,"name":"Unterterzen","coord":{"lat":"47.113856","lon":"9.255007"},"source":"ch"}},{"stop_point":{"uic_code":0,"name":"Paris-Est","coord":{"lat":"48.876976","lon":"2.35912"},"source":"ch"}},{"stop_point":{"uic_code":0,"name":"Mulhouse Ville","coord":{"lat":"47.741953","lon":"7.343048"},"source":"ch"}},{"stop_point":{"uic_code":0,"name":"Paris-Nord","coord":{"lat":"48.88089","lon":"2.354931"},"source":"ch"}},{"stop_point":{"uic_code":0,"name":"Paris-St-Lazare","coord":{"lat":"48.876331","lon":"2.32534"},"source":"ch"}},{"stop_point":{"uic_code":0,"name":"Frasne","coord":{"lat":"46.857749","lon":"6.157892"},"source":"ch"}},{"stop_point":{"uic_code":0,"name":"Lyon-Perrache","coord":{"lat":"45.748364","lon":"4.825301"},"source":"ch"}},{"stop_point":{"uic_code":0,"name":"Chamonix-Mont-Blanc","coord":{"lat":"45.92262","lon":"6.873836"},"source":"ch"}},{"stop_point":{"uic_code":0,"name":"Marseille-Saint-Charles","coord":{"lat":"43.303812","lon":"5.38195"},"source":"ch"}},{"stop_point":{"uic_code":0,"name":"Cannes","coord":{"lat":"43.554197","lon":"7.020325"},"source":"ch"}},{"stop_point":{"uic_code":0,"name":"Annot","coord":{"lat":"43.96553","lon":"6.6679"},"source":"contribute"}},{"stop_point":{"uic_code":0,"name":"Bastia","coord":{"lat":"42.6999","lon":"9.44988"},"source":"contribute"}},{"stop_point":{"uic_code":0,"name":"Calvi","coord":{"lat":"42.56422902763096","lon":"8.755781650543215"},"source":"contribute"}},{"stop_point":{"uic_code":0,"name":"Colomars","coord":{"lat":"43.76363067625155","lon":"7.204622626304627"},"source":"contribute"}},{"stop_point":{"uic_code":0,"name":"Corte","coord":{"lat":"42.305114260021675","lon":"9.155623912811281"},"source":"contribute"}},{"stop_point":{"uic_code":0,"name":"Digne","coord":{"lat":"44.08137344290068","lon":"6.233453750610352"},"source":"contribute"}},{"stop_point":{"uic_code":0,"name":"Ajaccio","coord":{"lat":"41.92777902833369","lon":"8.73917877674103"},"source":"contribute"}},{"stop_point":{"uic_code":0,"name":"Ponte-Leccia","coord":{"lat":"42.46453495348975","lon":"9.206392765045168"},"source":"contribute"}},{"stop_point":{"uic_code":0,"name":"St-Andr\u00e9-les-Alpes","coord":{"lat":"43.96812","lon":"6.50731"},"source":"contribute"}},{"stop_point":{"uic_code":0,"name":"Pertuis","coord":{"lat":"43.68355985815267","lon":"5.503817796707153"},"source":"contribute"}},{"stop_point":{"uic_code":0,"name":"Rueil-Malmaison","coord":{"lat":"48.88689442838321","lon":"2.1722406148910527"},"source":"contribute"}},{"stop_point":{"uic_code":0,"name":"St R\u00e9my l\u00e8s Chevreuse","coord":{"lat":"48.70287321632956","lon":"2.073310017585755"},"source":"contribute"}},{"stop_point":{"uic_code":0,"name":"St-Nom-la-Bret\u00e8che","coord":{"lat":"48.86798773220111","lon":"2.052077651023865"},"source":"contribute"}},{"stop_point":{"uic_code":0,"name":"St-Gervais-les-Bains","coord":{"lat":"45.90616399622159","lon":"6.701048612594605"},"source":"contribute"}},{"stop_point":{"uic_code":0,"name":"Volx","coord":{"lat":"43.8694627757935","lon":"5.8480310440063485"},"source":"contribute"}},{"stop_point":{"uic_code":0,"name":"St-Quentin-en-Yvelines","coord":{"lat":"48.78519","lon":"2.04575"},"source":"contribute"}},{"stop_point":{"uic_code":0,"name":"Salon-de-Provence","coord":{"lat":"43.63891508680954","lon":"5.0890517234802255"},"source":"contribute"}},{"stop_point":{"uic_code":0,"name":"Nantes-\u00c9tat","coord":{"lat":"47.2020583836634","lon":"-1.5636634826660156"},"source":"contribute"}},{"stop_point":{"uic_code":0,"name":"Paimb\u0153uf","coord":{"lat":"47.28607965595058","lon":"-2.0274549722671513"},"source":"contribute"}},{"stop_point":{"uic_code":0,"name":"Nice Sud-CP","coord":{"lat":"43.709018581100786","lon":"7.260047793388368"},"source":"contribute"}},{"stop_point":{"uic_code":0,"name":"Antwerpen Centraal","coord":{"lat":"51.21632981040425","lon":"4.420570135116578"},"source":"contribute"}},{"stop_point":{"uic_code":0,"name":"Bruxelles-Midi","coord":{"lat":"50.840405476119564","lon":"4.346637725830079"},"source":"contribute"}},{"stop_point":{"uic_code":0,"name":"Antwerpen-Berchem","coord":{"lat":"51.19948943890053","lon":"4.43319797548611"},"source":"contribute"}},{"stop_point":{"uic_code":0,"name":"Figueras - Vilafant","coord":{"lat":"42.25912758321882","lon":"2.9485845565795903"},"source":"contribute"}},{"stop_point":{"uic_code":0,"name":"Figueras","coord":{"lat":"42.26057274305397","lon":"2.96931266784668"},"source":"contribute"}},{"stop_point":{"uic_code":0,"name":"Portbou","coord":{"lat":"42.42604533603557","lon":"3.1614875793457036"},"source":"contribute"}},{"stop_point":{"uic_code":0,"name":"Antwerpen-Noorderdokken","coord":{"lat":"51.261559026128","lon":"4.42776381969452"},"source":"contribute"}},{"stop_point":{"uic_code":0,"name":"A\u00e9roport Charles de Gaulle \u2708","coord":{"lat":"49.005321069248794","lon":"2.570629119873047"},"source":"contribute"}},{"stop_point":{"uic_code":0,"name":"Auteuil-Boulogne","coord":{"lat":"48.84806958675925","lon":"2.26644515991211"},"source":"contribute"}},{"stop_point":{"uic_code":0,"name":"Bruxelles-A\u00e9roport-Zaventem \u2708","coord":{"lat":"50.89828797864432","lon":"4.484039783019399"},"source":"contribute"}},{"stop_point":{"uic_code":0,"name":"Bruxelles-Luxembourg","coord":{"lat":"50.83866086200175","lon":"4.373910427093507"},"source":"contribute"}},{"stop_point":{"uic_code":0,"name":"Bruxelles-Nord","coord":{"lat":"50.86043168280903","lon":"4.361636638641358"},"source":"contribute"}},{"stop_point":{"uic_code":0,"name":"Kontich-Lint","coord":{"lat":"51.13394205030947","lon":"4.476740956306458"},"source":"contribute"}},{"stop_point":{"uic_code":0,"name":"Kortrijk","coord":{"lat":"50.824386452826644","lon":"3.2643663883209233"},"source":"contribute"}},{"stop_point":{"uic_code":0,"name":"Mechelen","coord":{"lat":"51.01769979041976","lon":"4.483746886253358"},"source":"contribute"}},{"stop_point":{"uic_code":0,"name":"Mechelen-Nekkerspoel","coord":{"lat":"51.030339504730925","lon":"4.490044713020326"},"source":"contribute"}},{"stop_point":{"uic_code":0,"name":"Namur","coord":{"lat":"50.468387197479444","lon":"4.862898588180543"},"source":"contribute"}},{"stop_point":{"uic_code":0,"name":"Schaerbeek","coord":{"lat":"50.87855386150473","lon":"4.378893971443177"},"source":"contribute"}},{"stop_point":{"uic_code":0,"name":"Schiphol Airport \u2708","coord":{"lat":"52.30875413092429","lon":"4.762551784515382"},"source":"contribute"}},{"stop_point":{"uic_code":0,"name":"Rotterdam-Lombardijen","coord":{"lat":"51.88036888627656","lon":"4.531463384628297"},"source":"contribute"}},{"stop_point":{"uic_code":0,"name":"Rotterdam Zuid","coord":{"lat":"51.904757974461","lon":"4.510434865951539"},"source":"contribute"}},{"stop_point":{"uic_code":0,"name":"M\u00e9zidon","coord":{"lat":"49.07058708878435","lon":"-0.07521986961364747"},"source":"contribute"}},{"stop_point":{"uic_code":0,"name":"Rotterdam Centraal","coord":{"lat":"51.9247733991879","lon":"4.46971356868744"},"source":"contribute"}},{"stop_point":{"uic_code":0,"name":"Nanterre Pr\u00e9fecture","coord":{"lat":"48.896359203533734","lon":"2.2233581542968754"},"source":"contribute"}},{"stop_point":{"uic_code":0,"name":"Paris Orsay","coord":{"lat":"48.86050104862008","lon":"2.3318696022033696"},"source":"contribute"}},{"stop_point":{"uic_code":0,"name":"Paris Luxembourg","coord":{"lat":"48.83507714077325","lon":"2.349958419799805"},"source":"contribute"}},{"stop_point":{"uic_code":0,"name":"Roosendaal","coord":{"lat":"51.54001616358327","lon":"4.459671378135682"},"source":"contribute"}},{"stop_point":{"uic_code":0,"name":"Robinson","coord":{"lat":"48.7794593122523","lon":"2.2810900211334233"},"source":"contribute"}},{"stop_point":{"uic_code":0,"name":"Orsay-Ville","coord":{"lat":"48.69938059508856","lon":"2.1887346800995027"},"source":"contribute"}},{"stop_point":{"uic_code":0,"name":"M\u00e2con TGV","coord":{"lat":"46.28312282906117","lon":"4.779106378555299"},"source":"contribute"}},{"stop_point":{"uic_code":0,"name":"Lage Zwaluwe","coord":{"lat":"51.69039642747925","lon":"4.6643292903900155"},"source":"contribute"}},{"stop_point":{"uic_code":0,"name":"Les Aubrais - Orl\u00e9ans","coord":{"lat":"47.92726704345671","lon":"1.9058918952941897"},"source":"contribute"}},{"stop_point":{"uic_code":0,"name":"Dordrecht","coord":{"lat":"51.807948076835906","lon":"4.668690562248231"},"source":"contribute"}},{"stop_point":{"uic_code":0,"name":"Den Haag HS","coord":{"lat":"52.069522187747694","lon":"4.321435689926148"},"source":"contribute"}},{"stop_point":{"uic_code":0,"name":"Le Creusot TGV","coord":{"lat":"46.765290915299765","lon":"4.499480724334718"},"source":"contribute"}},{"stop_point":{"uic_code":0,"name":"St-Germain-en-Laye","coord":{"lat":"48.899242191501166","lon":"2.0954650640487675"},"source":"contribute"}},{"stop_point":{"uic_code":0,"name":"Amsterdam Centraal","coord":{"lat":"52.37878224866535","lon":"4.901345372200013"},"source":"contribute"}},{"stop_point":{"uic_code":0,"name":"Sucy-Bonneuil","coord":{"lat":"48.76994060438018","lon":"2.5092816352844243"},"source":"contribute"}},{"stop_point":{"uic_code":0,"name":"Barendrecht","coord":{"lat":"51.855522578037785","lon":"4.55336093902588"},"source":"contribute"}},{"stop_point":{"uic_code":0,"name":"Kleinbettingen","coord":{"lat":"49.643488229639374","lon":"5.916883349418641"},"source":"contribute"}},{"stop_point":{"uic_code":0,"name":"Monaco Monte-Carlo","coord":{"lat":"43.73837538178912","lon":"7.419655323028565"},"source":"contribute"}},{"stop_point":{"uic_code":0,"name":"Peterborough","coord":{"lat":"52.575595246401434","lon":"-0.2490699291229248"},"source":"contribute"}},{"stop_point":{"uic_code":0,"name":"St-Maixent","coord":{"lat":"46.40574223027554","lon":"-0.20011961460113528"},"source":"contribute"}},{"stop_point":{"uic_code":0,"name":"Valence TGV","coord":{"lat":"44.991859481924564","lon":"4.9788236618042"},"source":"contribute"}},{"stop_point":{"uic_code":0,"name":"Paris Nation","coord":{"lat":"48.838946982533514","lon":"2.401800155639649"},"source":"contribute"}},{"stop_point":{"uic_code":0,"name":"Massy","coord":{"lat":"48.726118915524154","lon":"2.2647285461425786"},"source":"contribute"}},{"stop_point":{"uic_code":0,"name":"Lyon St Exup\u00e9ry \u2708","coord":{"lat":"45.72013392728097","lon":"5.077856183052064"},"source":"contribute"}},{"stop_point":{"uic_code":0,"name":"Laqueuille","coord":{"lat":"45.64374062865413","lon":"2.7035593986511235"},"source":"contribute"}},{"stop_point":{"uic_code":0,"name":"Issy Plaine\/Val-de-Seine","coord":{"lat":"48.82951018807453","lon":"2.2648036479949956"},"source":"contribute"}},{"stop_point":{"uic_code":0,"name":"Facture-Biganos","coord":{"lat":"44.640283325185756","lon":"-0.9590871031951843"},"source":"contribute"}},{"stop_point":{"uic_code":0,"name":"Grenoble-Gi\u00e8res","coord":{"lat":"45.18322788543808","lon":"5.78582525253296"},"source":"contribute"}},{"stop_point":{"uic_code":0,"name":"Eygurande-Merlines","coord":{"lat":"45.645657029615535","lon":"2.4625039100646977"},"source":"contribute"}},{"stop_point":{"uic_code":0,"name":"Ch\u00e2telet - Les Halles","coord":{"lat":"48.85817876694892","lon":"2.3478555679321294"},"source":"contribute"}},{"stop_point":{"uic_code":0,"name":"Ch\u00e2teaulin-Embranchement","coord":{"lat":"48.20156079446675","lon":"-4.0944886207580575"},"source":"contribute"}},{"stop_point":{"uic_code":0,"name":"Bonn\u00e9table","coord":{"lat":"48.17367542584529","lon":"0.42007684707641607"},"source":"contribute"}},{"stop_point":{"uic_code":0,"name":"Boissy St L\u00e9ger","coord":{"lat":"48.75255126793502","lon":"2.504941821098328"},"source":"contribute"}},{"stop_point":{"uic_code":0,"name":"Auber","coord":{"lat":"48.87239","lon":"2.32948"},"source":"contribute"}},{"stop_point":{"uic_code":0,"name":"Irun","coord":{"lat":"43.34092206622109","lon":"-1.7957818508148196"},"source":"contribute"}},{"stop_point":{"uic_code":0,"name":"Aix-les-Bains","coord":{"lat":"45.68803","lon":"5.91462"},"source":"contribute"}},{"stop_point":{"uic_code":0,"name":"La Chapelle-sur-Erdre","coord":{"lat":"47.2969442645599","lon":"-1.5465778112411501"},"source":"contribute"}},{"stop_point":{"uic_code":0,"name":"Amb\u00e9rieu","coord":{"lat":"45.953048085004504","lon":"5.347552299499513"},"source":"contribute"}},{"stop_point":{"uic_code":0,"name":"Massiac","coord":{"lat":"45.255687446834045","lon":"3.1987380981445317"},"source":"contribute"}},{"stop_point":{"uic_code":0,"name":"Vitrolles-A\u00e9roport-Marseille-Provence \u2708","coord":{"lat":"43.44071504783106","lon":"5.237361788749696"},"source":"contribute"}},{"stop_point":{"uic_code":0,"name":"Girona","coord":{"lat":"41.97905550853738","lon":"2.8166252374649052"},"source":"contribute"}},{"stop_point":{"uic_code":0,"name":"Charles de Gaulle - \u00c9toile","coord":{"lat":"48.87121461849421","lon":"2.30215072631836"},"source":"contribute"}},{"stop_point":{"uic_code":0,"name":"Champ de Mars","coord":{"lat":"48.85700523257262","lon":"2.2911161184310918"},"source":"contribute"}},{"stop_point":{"uic_code":0,"name":"St-Germain Grande Ceinture","coord":{"lat":"48.90334509314771","lon":"2.0749461650848393"},"source":"contribute"}},{"stop_point":{"uic_code":0,"name":"Toulouse-St-Cyprien-Ar\u00e8nes","coord":{"lat":"43.59410502372916","lon":"1.4170807600021365"},"source":"contribute"}},{"stop_point":{"uic_code":0,"name":"Toulouse-St-Agne","coord":{"lat":"43.580144092421776","lon":"1.451048254966736"},"source":"contribute"}},{"stop_point":{"uic_code":0,"name":"St Jean de Maurienne","coord":{"lat":"45.27797239451975","lon":"6.355220675468445"},"source":"contribute"}},{"stop_point":{"uic_code":0,"name":"La V\u00e9subie\u2013Plan-du-Var","coord":{"lat":"43.85747094609931","lon":"7.1965277194976816"},"source":"contribute"}},{"stop_point":{"uic_code":0,"name":"Dover","coord":{"lat":"51.12501086900424","lon":"1.3054096698760989"},"source":"contribute"}},{"stop_point":{"uic_code":0,"name":"Folkestone","coord":{"lat":"51.08282691647132","lon":"1.1683917045593264"},"source":"contribute"}},{"stop_point":{"uic_code":0,"name":"York","coord":{"lat":"53.957706337179424","lon":"-1.0933488607406618"},"source":"contribute"}},{"stop_point":{"uic_code":0,"name":"Torino Porta Nuova","coord":{"lat":"45.05698587401672","lon":"7.693090438842774"},"source":"contribute"}},{"stop_point":{"uic_code":0,"name":"Torino Porta Susa","coord":{"lat":"45.07178930641987","lon":"7.667952775955201"},"source":"contribute"}},{"stop_point":{"uic_code":0,"name":"Torino Stura","coord":{"lat":"45.12269110678819","lon":"7.715020179748536"},"source":"contribute"}},{"stop_point":{"uic_code":0,"name":"Ventimiglia","coord":{"lat":"43.78887144079869","lon":"7.614362239837647"},"source":"contribute"}},{"stop_point":{"uic_code":0,"name":"Voghera","coord":{"lat":"44.99800882927148","lon":"9.007260203361513"},"source":"contribute"}},{"stop_point":{"uic_code":0,"name":"Vercelli","coord":{"lat":"45.329353912677206","lon":"8.417608737945558"},"source":"contribute"}},{"stop_point":{"uic_code":0,"name":"Rho","coord":{"lat":"45.523985808299884","lon":"9.043486118316652"},"source":"contribute"}},{"stop_point":{"uic_code":0,"name":"Bardonecchia","coord":{"lat":"45.076704340400994","lon":"6.710945963859559"},"source":"contribute"}},{"stop_point":{"uic_code":0,"name":"Savona","coord":{"lat":"44.30690016435605","lon":"8.472116589546205"},"source":"contribute"}},{"stop_point":{"uic_code":0,"name":"Laigueglia","coord":{"lat":"43.981279841695994","lon":"8.158700466156008"},"source":"contribute"}},{"stop_point":{"uic_code":0,"name":"London St Pancras","coord":{"lat":"51.53173911869085","lon":"-0.12551879830425608"},"source":"contribute"}},{"stop_point":{"uic_code":0,"name":"London Blackfriars","coord":{"lat":"51.510272557311175","lon":"-0.10030174307757991"},"source":"contribute"}},{"stop_point":{"uic_code":0,"name":"London Bridge","coord":{"lat":"51.50517904629381","lon":"-0.0847889184296946"},"source":"contribute"}},{"stop_point":{"uic_code":0,"name":"London Euston","coord":{"lat":"51.5296918746746","lon":"-0.13490438461303714"},"source":"contribute"}},{"stop_point":{"uic_code":0,"name":"London Victoria","coord":{"lat":"51.49437672813945","lon":"-0.14150261878967288"},"source":"contribute"}},{"stop_point":{"uic_code":0,"name":"London Waterloo","coord":{"lat":"51.50234489166332","lon":"-0.11538863182067872"},"source":"contribute"}},{"stop_point":{"uic_code":0,"name":"Paris Bastille","coord":{"lat":"48.853138550976446","lon":"2.3672962188720708"},"source":"contribute"}}]}